City,Lat,Lon,Temp,Humidity,Cloudiness,Wind Speed,Country,Date
Warman,52.3168,-106.5679,3.2,78,40,11.5,CA,1611842732
Hilo,19.7297,-155.09,69.8,83,90,13.8,US,1611842743
Kununurra,-15.7667,128.7333,80.6,100,40,11.5,AU,1611843081
Kruisfontein,-34.0033,24.7314,78.01,47,0,8.01,ZA,1611843081
Nadadores,27.05,-101.6,46.99,32,100,4.34,MX,1611843081
Tasiilaq,65.6145,-37.6368,26.6,86,90,26.46,GL,1611843082
Punta Arenas,-53.15,-70.9167,48.2,71,75,24.16,CL,1611843082
Yellowknife,62.456,-114.3525,-23.01,76,40,4.61,CA,1611842962
Vitim,59.4511,112.5578,-36.08,79,57,3.62,RU,1611843082
Saint-Philippe,-21.3585,55.7679,86.0,62,90,10.36,RE,1611843082
Kapaa,22.0752,-159.319,73.4,78,90,21.85,US,1611843082
Maţāy,28.419,30.7792,64.96,27,0,10.63,EG,1611843083
Bondoukou,8.0333,-2.8,99.07,9,0,5.79,CI,1611843083
Saskylakh,71.9167,114.0833,-43.38,78,37,3.51,RU,1611843083
Tucson,32.2217,-110.9265,51.8,40,90,12.66,US,1611842876
Ushuaia,-54.8,-68.3,44.6,76,75,4.61,AR,1611842964
Amberley,39.2048,-84.428,24.01,80,90,7.94,US,1611843083
Mar del Plata,-38.0023,-57.5575,71.6,73,0,9.22,AR,1611843084
Abonnema,4.7084,6.7931,91.4,62,75,6.91,NG,1611843084
Andes,5.6561,-75.8788,61.0,91,67,1.72,CO,1611843069
Cidreira,-30.1811,-50.2056,76.35,73,68,3.09,BR,1611843084
Kavieng,-2.5744,150.7967,82.8,77,100,9.51,PG,1611843084
Qaanaaq,77.484,-69.3632,-10.28,68,0,9.13,GL,1611843084
Aksarka,66.5606,67.7975,-25.98,85,100,10.74,RU,1611843084
Sumbe,-11.2061,13.8437,86.0,62,20,10.36,AO,1611843085
Rikitea,-23.1203,-134.9692,78.91,68,16,2.64,PF,1611843085
Vaini,-21.2,-175.2,75.2,100,90,16.11,TO,1611843085
Puerto Ayora,-0.7393,-90.3518,78.8,83,40,10.36,EC,1611843085
Ilulissat,69.2167,-51.1,10.4,48,1,12.66,GL,1611843085
Arinos,-15.9169,-46.1056,83.86,44,46,5.28,BR,1611843086
Linhares,-19.3911,-40.0722,86.99,51,48,5.64,BR,1611843067
Baghdad,33.3406,44.4009,68.0,34,0,6.91,IQ,1611843081
Busselton,-33.65,115.3333,64.99,82,0,1.99,AU,1611843086
Sørland,67.667,12.6934,33.8,64,40,16.11,NO,1611843086
Kirkenær,60.4564,12.0582,17.01,92,40,2.21,NO,1611843086
Vanimo,-2.6741,141.3028,78.8,84,100,3.18,PG,1611843086
Khatanga,71.9667,102.5,-36.56,77,0,5.57,RU,1611843087
Mpika,-11.8343,31.4529,73.47,85,100,1.43,ZM,1611843087
Samarai,-10.6167,150.6667,81.12,79,100,10.29,PG,1611843087
Clearlake,38.9582,-122.6264,41.0,96,90,1.7,US,1611842868
Mataura,-46.1927,168.8643,48.0,76,92,8.99,NZ,1611843088
Greeley,40.4233,-104.7091,18.0,85,1,6.91,US,1611843088
Hobart,-42.8794,147.3294,57.2,67,90,4.61,AU,1611843088
Port Lincoln,-34.7333,135.8667,63.32,89,100,3.06,AU,1611843088
Yumen,40.2833,97.2,25.54,71,0,10.45,CN,1611843088
Praia da Vitória,38.7333,-27.0667,64.4,77,40,20.47,PT,1611843088
New Norfolk,-42.7826,147.0587,57.2,67,90,4.61,AU,1611843089
Hambantota,6.1241,81.1185,80.6,89,90,3.44,LK,1611843089
Atuona,-9.8,-139.0333,77.7,78,1,16.08,PF,1611843089
Korla,41.7597,86.1469,23.77,83,0,1.72,CN,1611843089
Kidal,18.4411,1.4078,87.12,10,0,15.86,ML,1611843089
Touros,-5.1989,-35.4608,87.8,55,40,16.11,BR,1611843090
Hasaki,35.7333,140.8333,36.0,100,75,8.05,JP,1611843090
Bluff,-46.6,168.3333,48.0,76,86,8.99,NZ,1611843090
Klaksvík,62.2266,-6.589,30.2,86,20,1.14,FO,1611843090
Ribeira Grande,38.5167,-28.7,62.6,94,40,14.97,PT,1611843090
Avarua,-21.2078,-159.775,78.8,83,75,6.91,CK,1611843091
Itacoatiara,-3.1431,-58.4442,81.19,79,99,3.09,BR,1611843091
Kashgar,39.4547,75.9797,30.2,47,0,4.47,CN,1611843091
Marsh Harbour,26.5412,-77.0636,75.27,81,53,24.76,BS,1611843091
Ribeira Brava,32.65,-17.0667,63.0,94,40,6.91,PT,1611843091
Brigantine,39.4101,-74.3646,30.0,54,40,21.85,US,1611843092
Rocha,-34.4833,-54.3333,83.25,31,100,4.76,UY,1611843092
Saint-Joseph,-21.3667,55.6167,86.0,62,90,10.36,RE,1611843092
Bethel,41.3712,-73.414,26.6,54,90,8.05,US,1611843092
Bathsheba,13.2167,-59.5167,82.4,57,40,21.85,BB,1611843092
Barrow,71.2906,-156.7887,-7.6,77,90,4.61,US,1611842816
Fortuna,40.5982,-124.1573,45.0,100,90,13.8,US,1611843093
Asău,46.4333,26.4,36.0,60,75,8.05,RO,1611843093
Yaring,6.8662,101.3689,77.29,83,16,13.44,TH,1611843093
Erenhot,43.6475,111.9767,6.06,83,9,9.19,CN,1611843093
Nikolskoye,59.7035,30.7861,33.8,86,75,6.71,RU,1611843093
Winnemucca,40.973,-117.7357,35.6,64,90,12.66,US,1611843094
San Francisco de Ojuera,14.7499,-88.1918,62.6,94,75,6.91,HN,1611843094
São Filipe,14.8961,-24.4956,78.12,53,73,8.25,CV,1611843094
Arraial do Cabo,-22.9661,-42.0278,89.6,55,0,13.8,BR,1611843094
Zenzeli,45.9241,47.0474,40.77,82,100,7.83,RU,1611843095
Jamestown,42.097,-79.2353,18.0,86,90,11.52,US,1611843095
Władysławowo,54.7909,18.4009,33.8,64,75,17.27,PL,1611843095
Waipawa,-41.4122,175.5153,57.2,72,90,17.27,NZ,1611843095
Thompson,55.7435,-97.8558,-29.2,68,1,2.3,CA,1611843095
Pangnirtung,66.1451,-65.7125,-7.6,77,1,3.44,CA,1611843095
Rafrāf,37.1904,10.1837,64.4,68,75,12.66,TN,1611843096
Menongue,-14.6585,17.691,72.61,72,88,7.74,AO,1611843096
Cabo San Lucas,22.8909,-109.9124,57.2,82,75,4.61,MX,1611842828
Severo-Kuril'sk,50.6789,156.125,28.78,94,90,18.88,RU,1611843096
Hong Kong,22.2855,114.1577,66.0,56,0,19.35,HK,1611842886
Provideniya,64.3833,-173.3,2.32,88,100,18.88,RU,1611843097
Chokurdakh,70.6333,147.9167,-16.44,88,100,6.62,RU,1611843097
Verkhnetulomskiy,68.6073,31.7962,3.2,85,0,4.47,RU,1611843097
Drammen,59.7439,10.2045,18.0,90,3,2.44,NO,1611843097
Albany,42.6001,-73.9662,21.99,57,32,4.0,US,1611842964
Maputo,-25.9653,32.5892,78.8,73,75,17.27,MZ,1611842813
Calawag,10.6697,119.5707,78.58,84,91,13.18,PH,1611843098
Waingapu,-9.6567,120.2641,79.39,82,100,10.51,ID,1611842850
Ancud,-41.8697,-73.8203,64.99,67,40,2.3,CL,1611843098
Naze,28.3667,129.4833,54.1,75,16,24.29,JP,1611843099
Cape Town,-33.9258,18.4232,75.2,43,0,17.27,ZA,1611842950
Mount Gambier,-37.8333,140.7667,73.4,68,90,14.97,AU,1611843099
Coari,-4.085,-63.1414,83.48,74,69,2.01,BR,1611843099
Pevek,69.7008,170.3133,-20.07,86,88,2.17,RU,1611843099
Faanui,-16.4833,-151.75,80.73,71,4,9.55,PF,1611843100
Samaná,19.2056,-69.3369,75.2,83,20,5.68,DO,1611843100
Sobolevo,54.4299,31.8996,28.9,99,100,6.31,RU,1611843100
Denpasar,-8.65,115.2167,84.2,74,40,10.36,ID,1611842862
Xichang,27.8964,102.2634,42.91,62,0,2.73,CN,1611843100
Deputatsky,69.3,139.9,-37.73,81,99,4.45,RU,1611843100
Upernavik,72.7868,-56.1549,-9.63,89,58,9.6,GL,1611843101
Banamba,13.55,-7.45,92.79,9,0,9.35,ML,1611843101
Bukama,-9.2,25.85,84.0,70,85,3.58,CD,1611842830
Shenjiamen,29.9576,122.298,40.59,69,0,22.77,CN,1611843101
Thaba-Tseka,-29.522,28.6084,61.99,72,86,2.37,LS,1611843101
Esperance,-33.8667,121.9,59.0,88,0,8.05,AU,1611843102
Mahébourg,-20.4081,57.7,82.4,69,40,10.36,MU,1611843102
Gīdolē,5.65,37.3667,78.35,20,64,1.01,ET,1611843102
Kayerkan,69.3497,87.7602,-33.2,78,0,4.41,RU,1611843102
Saldanha,-33.0117,17.9442,75.2,41,0,18.41,ZA,1611843102
Malinovoye Ozero,51.6753,79.7825,15.42,97,56,7.76,RU,1611843103
Codrington,-38.2667,141.9667,65.66,93,100,8.59,AU,1611843103
Ligayan,4.6533,119.4706,81.75,83,1,14.16,PH,1611843103
Airai,-8.9266,125.4092,61.83,100,100,3.83,TL,1611843103
Castro,-24.7911,-50.0119,70.57,80,100,4.59,BR,1611843103
Pirmasens,49.2015,7.6053,54.0,100,90,16.11,DE,1611843104
Farmington,36.7281,-108.2187,24.8,63,1,12.66,US,1611843104
Mahajanga,-15.7167,46.3167,87.8,70,20,11.5,MG,1611843104
Charters Towers,-20.1,146.2667,74.07,82,100,12.3,AU,1611843104
Hermanus,-34.4187,19.2345,73.99,57,0,5.01,ZA,1611843104
Yerbogachën,61.2767,108.0108,-38.92,80,22,6.51,RU,1611843104
Kaitangata,-46.2817,169.8464,46.99,86,90,5.01,NZ,1611843105
Susa,32.1942,48.2436,68.67,28,83,9.55,IR,1611843105
Saint Paul Harbor,57.79,-152.4072,33.8,86,90,4.61,US,1611843105
Bonavista,48.6499,-53.1147,28.99,93,100,2.3,CA,1611843105
Torbay,47.6666,-52.7314,30.0,93,90,9.22,CA,1611843105
Khanpur,28.6453,70.6567,55.33,36,0,1.23,PK,1611843105
Tiksi,71.6872,128.8694,-21.55,87,100,5.84,RU,1611843106
Zabul Province,32.25,67.25,36.79,66,0,10.83,AF,1611843106
Cherskiy,68.75,161.3,-26.61,85,100,2.68,RU,1611843106
Tsimmerbude,54.675,20.1347,32.0,93,75,8.95,RU,1611843106
Grand-Lahou,5.1367,-5.0242,84.15,70,67,7.58,CI,1611843106
Narsaq,60.9167,-46.05,44.6,31,75,23.02,GL,1611843107
Souillac,-20.5167,57.5167,82.4,69,40,10.36,MU,1611843107
Norman Wells,65.282,-126.8329,-25.6,75,75,3.44,CA,1611843107
Lebu,-37.6167,-73.65,57.52,81,100,3.4,CL,1611843107
Dikson,73.5069,80.5464,-30.41,80,65,8.19,RU,1611843107
Goderich,43.7501,-81.7165,19.4,79,99,21.85,CA,1611843107
Berlevåg,70.8578,29.0864,41.0,33,75,12.66,NO,1611843107
Eenhana,-17.4667,16.3333,91.4,38,40,8.05,NA,1611843108
Esim,4.8699,-2.2405,83.48,70,72,8.48,GH,1611843108
Dalvik,65.9702,-18.5286,-0.4,85,0,8.05,IS,1611843108
Dondo,-19.6094,34.7431,89.6,62,20,14.97,MZ,1611843108
Arnoldstein,46.5461,13.71,33.01,64,20,6.91,AT,1611843108
Aklavik,68.2191,-135.0107,-25.6,75,75,4.61,CA,1611843109
Nanortalik,60.1432,-45.2371,28.09,91,100,7.61,GL,1611843109
Vestmanna,62.1564,-7.1664,30.2,86,20,1.14,FO,1611843109
Yanam,16.7333,82.2167,78.8,78,1,6.91,IN,1611843109
Kaeo,-35.1,173.7833,64.0,80,100,8.99,NZ,1611843109
Montepuez,-13.1256,38.9997,80.35,85,83,2.8,MZ,1611843072
Hirara,24.8,125.2833,60.51,75,100,31.74,JP,1611842829
Guhāgar,17.4842,73.1929,72.97,68,41,7.54,IN,1611843110
Uberlândia,-18.9186,-48.2772,78.8,50,20,6.91,BR,1611843110
Imeni Poliny Osipenko,52.4201,136.4853,-6.32,91,100,4.41,RU,1611843110
Caravelas,-17.7125,-39.2481,86.09,53,59,8.28,BR,1611843110
Lompoc,34.6391,-120.4579,53.6,87,90,10.36,US,1611843111
Cabadiangan,9.7531,122.4739,76.98,83,85,11.97,PH,1611843012
Kyshtovka,56.555,76.6271,21.9,97,100,14.41,RU,1611843111
Geraldton,-28.7667,114.6,73.4,78,0,24.16,AU,1611843111
Abu Samrah,35.3029,37.1841,50.86,63,100,12.01,SY,1611843111
Kyren,51.6828,102.1408,9.07,80,23,5.5,RU,1611843111
Ilo,-17.6394,-71.3375,75.2,69,75,4.61,PE,1611842895
Big Spring,32.2504,-101.4787,32.0,80,1,8.19,US,1611842910
Half Moon Bay,37.4636,-122.4286,51.01,93,90,11.5,US,1611843112
Sakakah,29.9697,40.2064,68.0,24,0,8.05,SA,1611843112
Colmenar Viejo,40.6591,-3.7676,57.0,100,90,3.91,ES,1611843112
Mwingi,-0.9344,38.0601,78.46,57,10,8.34,KE,1611843113
Ponta Delgada,37.7333,-25.6667,66.0,94,75,9.22,PT,1611843113
Ucluelet,48.9329,-125.5528,36.0,92,78,4.59,CA,1611843113
Prieska,-29.6641,22.7474,88.23,12,0,7.56,ZA,1611843113
Meulaboh,4.1363,96.1285,78.4,82,93,3.67,ID,1611843113
Steinbach am Taunus,50.1667,8.5667,44.01,100,75,5.75,DE,1611842968
Mago,53.2514,140.1822,-5.24,91,100,2.95,RU,1611843113
Tuktoyaktuk,69.4541,-133.0374,-27.09,85,4,7.11,CA,1611843114
Diffa,13.3154,12.6113,88.74,10,0,16.33,NE,1611843114
Hithadhoo,-0.6,73.0833,80.56,76,100,10.42,MV,1611843114
Longyearbyen,78.2186,15.6401,1.4,66,20,27.63,SJ,1611843114
Taldan,53.6667,124.8,-34.67,80,29,3.13,RU,1611843115
Ulaangom,49.9811,92.0667,-12.08,88,83,0.18,MN,1611843115
Yarim,14.298,44.3779,62.44,29,0,4.16,YE,1611843115
Bredasdorp,-34.5322,20.0403,73.4,46,0,11.5,ZA,1611843115
Buala,-8.145,159.5921,81.1,81,100,8.16,SB,1611843115
Broome,42.2506,-75.833,18.0,67,90,17.27,US,1611843115
Isangel,-19.55,169.2667,79.07,84,98,12.26,VU,1611843116
Blankenberge,51.3131,3.1323,53.01,83,97,8.01,BE,1611843116
Beringovskiy,63.05,179.3167,1.99,93,100,19.39,RU,1611843116
Erciş,39.0287,43.3586,39.2,81,40,4.61,TR,1611843116
San Ramon,37.7799,-121.978,48.99,87,90,6.89,US,1611843116
Bawku,11.0616,-0.2417,99.07,8,0,9.04,GH,1611843116
Elliot,-31.3333,27.85,64.78,76,88,5.77,ZA,1611843117
Karad,17.2833,74.2,76.28,39,0,5.44,IN,1611843117
East London,-33.0153,27.9116,75.2,53,0,12.66,ZA,1611843117
Oktyabr'skiy,54.4815,53.471,17.24,95,100,8.59,RU,1611843117
George Town,5.4112,100.3354,78.8,88,40,2.3,MY,1611842976
Aquiraz,-3.9014,-38.3911,86.0,70,40,17.27,BR,1611842951
Tonj,7.2737,28.6822,99.45,15,100,7.65,SS,1611843118
Castries,13.9957,-61.0061,84.2,61,20,10.36,LC,1611843118
Mabaruma,8.2,-59.7833,83.01,59,19,7.9,GY,1611843118
Baruun-Urt,46.6806,113.2792,-12.57,86,72,11.88,MN,1611843119
Thinadhoo,0.5333,72.9333,81.41,71,100,13.78,MV,1611843119
Sakaraha,-22.9,44.5333,81.34,68,88,2.21,MG,1611843119
São João da Barra,-21.6403,-41.0511,89.6,43,0,4.61,BR,1611843119
Butaritari,3.0707,172.7902,81.09,80,81,17.16,KI,1611843119
Kedrovyy,56.1667,91.8167,-5.8,84,75,2.24,RU,1611843119
Ponta do Sol,32.6667,-17.1,63.0,94,40,6.91,PT,1611843119
Fairbanks,64.8378,-147.7164,-22.0,68,20,2.71,US,1611843109
Juegang,32.3174,121.1855,36.0,66,0,1.01,CN,1611843120
Port Elizabeth,-33.918,25.5701,77.0,44,0,10.36,ZA,1611843120
Pangody,65.85,74.4859,-29.96,84,100,14.92,RU,1611843121
Mukhen,48.1,136.1,-11.24,85,94,2.3,RU,1611843121
Tuatapere,-46.1333,167.6833,48.0,76,79,8.99,NZ,1611843121
Nālūt,30.3333,10.85,65.35,30,0,8.99,LY,1611843121
Rock Sound,24.9,-76.2,75.15,80,0,15.88,BS,1611843121
Porosozero,62.7191,32.727,18.54,98,73,5.01,RU,1611843122
Raudeberg,61.9875,5.1352,32.0,78,89,20.54,NO,1611843122
El Salvador,13.8333,-88.9167,82.4,68,0,9.22,SV,1611843122
Chivay,-15.6383,-71.6011,52.99,44,0,2.04,PE,1611843122
Bo Phloi,14.3236,99.5161,84.99,49,38,2.37,TH,1611843122
Peniche,39.3558,-9.3811,59.0,95,100,1.99,PT,1611843123
Juneau,58.3019,-134.4197,10.4,79,20,6.29,US,1611843123
Lata,40.1629,-8.3327,68.0,65,100,3.76,PT,1611843123
Gravdal,68.1214,13.5031,26.6,63,20,10.36,NO,1611843123
Carnarvon,-24.8667,113.6333,77.0,73,0,21.85,AU,1611843123
Rawson,-43.3002,-65.1023,66.27,32,0,21.61,AR,1611843124
Abu Dhabi,24.4667,54.3667,73.4,60,0,6.91,AE,1611842894
Hadsund,56.7148,10.1168,30.99,83,34,1.99,DK,1611843124
Kudahuvadhoo,2.6708,72.8944,80.85,72,37,11.16,MV,1611843124
Noyabrsk,63.1994,75.4507,-20.34,88,100,15.7,RU,1611843124
Kimbe,-5.5502,150.1429,78.17,88,100,4.05,PG,1611843125
Kupang,-10.1667,123.5833,80.1,82,100,11.3,ID,1611843125
Tual,-5.6667,132.75,83.71,76,100,8.84,ID,1611843125
Cayenne,4.9333,-52.3333,82.4,69,75,10.36,GF,1611843125
Kahului,20.8947,-156.47,71.6,60,1,13.8,US,1611843125
Hobbs,32.7026,-103.136,30.0,86,1,6.91,US,1611843125
Ahipara,-35.1667,173.1667,62.24,79,100,14.23,NZ,1611843126
Salalah,17.0151,54.0924,77.0,53,1,5.75,OM,1611843126
Rosarito,32.3333,-117.0333,48.0,70,1,4.61,MX,1611842997
Kavaratti,10.5669,72.642,80.64,73,100,11.23,IN,1611843126
Chabahar,25.2919,60.643,70.3,48,0,10.69,IR,1611843126
Camacha,33.0833,-16.3333,64.4,88,40,8.05,PT,1611843126
Saint George,37.1041,-113.5841,39.99,56,20,5.03,US,1611843127
Chui,-33.6971,-53.4616,78.93,46,40,4.07,UY,1611843127
Mayo,38.8876,-76.5119,30.2,59,20,16.11,US,1611843127
Ilorin,8.5,4.55,99.43,17,0,2.59,NG,1611843127
Lusambo,-4.9667,23.45,74.62,69,100,6.42,CD,1611843127
Oxford,51.7522,-1.256,53.6,82,40,13.8,GB,1611842935
Ostrovnoy,68.0531,39.5131,2.98,91,70,11.54,RU,1611843128
Córdoba,-31.4135,-64.1811,80.6,61,20,19.57,AR,1611843128
Rapid Valley,44.0625,-103.1463,28.0,73,1,2.98,US,1611843128
Port Alfred,-33.5906,26.891,72.0,78,9,11.77,ZA,1611843128
Hammerfest,70.6634,23.6821,21.2,68,75,13.8,NO,1611843129
Wuda,39.4994,106.7117,23.72,73,0,4.54,CN,1611843129
Kupino,54.3663,77.2981,19.98,97,100,15.23,RU,1611843129
Iqaluit,63.7506,-68.5145,-11.2,70,1,40.29,CA,1611843129
Vardø,70.3705,31.1107,26.6,59,75,24.16,NO,1611843129
Tarpon Springs,28.1461,-82.7568,57.99,72,0,1.01,US,1611843129
Port Moresby,-9.4431,147.1797,77.0,94,75,8.05,PG,1611843130
Flinders,-34.5833,150.8552,69.01,80,100,4.0,AU,1611843130
Erzincan Province,39.75,39.5,42.8,61,90,14.97,TR,1611842970
Orán,-23.1322,-64.326,88.88,44,0,0.94,AR,1611843130
Nyrob,60.733,56.7202,25.16,97,100,7.74,RU,1611843130
Dudinka,69.4058,86.1778,-35.91,77,0,3.33,RU,1611843131
Palpa,-14.5336,-75.1856,77.58,50,9,5.01,PE,1611843131
Maceió,-9.6658,-35.7353,77.0,83,75,11.5,BR,1611842852
Kiryat Gat,31.61,34.7642,57.99,43,99,13.13,IL,1611842942
Dali,25.7,100.1833,45.95,55,0,4.54,CN,1611843131
Los Llanos de Aridane,28.6585,-17.9182,69.8,73,0,4.61,ES,1611843131
La Rioja,42.25,-2.5,64.4,63,0,12.66,ES,1611843132
Vilhena,-12.7406,-60.1458,75.2,88,75,4.61,BR,1611842910
Hualmay,-11.0964,-77.6139,73.85,67,37,6.96,PE,1611843132
Portland,45.5234,-122.6762,41.0,87,90,5.75,US,1611842528
Pisco,-13.7,-76.2167,75.2,73,0,4.61,PE,1611842948
Yulara,-25.2406,130.9889,87.8,45,88,11.5,AU,1611843132
Oga,46.4631,10.347,48.99,93,75,8.05,IT,1611843133
Saint Anthony,45.0205,-93.218,10.4,56,90,4.61,US,1611843133
Santo Tomas,14.1079,121.1414,78.8,73,75,6.91,PH,1611843133
Riyadh,24.6877,46.7219,77.0,18,0,14.97,SA,1611842967
Colares,38.7992,-9.4469,60.01,94,90,5.75,PT,1611843133
Tessalit,20.1986,1.0114,86.83,11,0,17.09,ML,1611843133
Anadyr,64.75,177.4833,6.8,78,75,6.71,RU,1611843134
Urengoy,65.9667,78.3667,-34.13,80,100,12.12,RU,1611843134
Bambous Virieux,-20.3428,57.7575,82.4,69,40,10.36,MU,1611843134
Fort Nelson,58.8053,-122.7002,-23.8,76,20,3.44,CA,1611843134
Inta,66.0317,60.1659,-9.22,91,100,11.99,RU,1611843134
Tambopata,-12.7333,-69.1833,80.6,83,75,8.05,PE,1611843135
Lakes Entrance,-37.8811,147.981,62.01,82,24,5.99,AU,1611843135
Aberdeen,57.1437,-2.0981,39.2,87,90,9.22,GB,1611843125
Henties Bay,-22.116,14.2845,71.01,77,3,10.31,NA,1611843135
Te Anau,-45.4167,167.7167,40.01,87,79,1.36,NZ,1611843136
Sakaiminato,35.55,133.2333,37.4,75,75,29.93,JP,1611843136
Clyde River,70.4692,-68.5914,-18.4,76,1,3.44,CA,1611843136
Wattegama,6.7989,81.4808,80.6,89,90,3.44,LK,1611843136
La Ronge,55.1001,-105.2842,-0.4,78,100,6.91,CA,1611843136
Leh,34.1667,77.5833,5.56,61,85,0.96,IN,1611843136
Havre-St-Pierre,50.2334,-63.5986,10.4,67,1,6.91,CA,1611843137
Nioro,13.35,-15.75,100.08,7,96,9.8,GM,1611843137
Kibala,9.1104,18.3463,100.4,10,0,9.22,TD,1611843137
Warrington,53.3925,-2.5802,52.0,82,20,10.36,GB,1611843137
Kazachinskoye,57.6953,93.2761,-31.29,82,100,1.68,RU,1611843138
Kachīry,53.0675,76.1036,22.32,96,100,13.98,KZ,1611843138
Volchanets,42.9131,132.7469,15.84,90,100,20.04,RU,1611843138
Xining,36.6167,101.7667,17.53,67,0,2.26,CN,1611843138
Dawlatabad,36.4141,64.9053,45.75,54,0,6.67,AF,1611843138
Mogadishu,2.0371,45.3438,82.4,61,20,20.71,SO,1611843138
Canmore,51.0834,-115.3521,14.0,85,95,1.14,CA,1611843139
Kinablangan,7.6947,126.5503,77.74,86,98,8.48,PH,1611843139
Port Augusta,-32.5,137.7667,73.0,83,90,12.66,AU,1611843139
Mopipi,-21.1833,24.8833,88.38,41,79,5.84,BW,1611843139
Bilibino,68.0546,166.4372,-16.82,82,100,7.67,RU,1611843140
Iskateley,67.6803,53.1512,-25.02,85,0,11.43,RU,1611843140
Armidale,-30.5167,151.65,57.99,84,24,1.99,AU,1611843140
Padang,-0.9492,100.3543,80.6,78,75,5.75,ID,1611843140
Khovd,48.0056,91.6419,4.86,84,0,1.81,MN,1611843140
Beidao,34.5686,105.8933,34.68,72,0,3.94,CN,1611843140
Acaraú,-2.8856,-40.12,86.52,61,100,14.63,BR,1611843141
Abhā,18.2164,42.5053,73.4,42,20,6.91,SA,1611843141
Adré,13.4667,22.2,91.76,11,0,8.68,TD,1611843141
Greenville,35.6127,-77.3663,32.0,93,90,9.22,US,1611843141
Acapulco de Juárez,16.8634,-99.8901,73.4,73,75,5.19,MX,1611843141
Marion,39.7684,-86.1555,24.01,86,40,6.91,US,1611843069
Mudgee,-32.5943,149.5871,66.99,72,90,12.66,AU,1611843142
Zhuhai,22.2769,113.5678,66.2,59,0,13.8,CN,1611843142
Satuk,41.2263,32.3836,33.49,90,100,2.93,TR,1611843142
Grindavik,63.8424,-22.4338,28.4,80,0,5.75,IS,1611843142
Akdepe,42.0551,59.3788,44.6,49,0,11.5,TM,1611843142
Salisbury,51.0693,-1.7957,55.4,87,75,10.36,GB,1611843143
Obihiro,42.9172,143.2044,16.74,94,100,1.12,JP,1611843143
Port Hedland,-20.3167,118.5667,84.2,79,0,10.36,AU,1611842899
Bilma,18.6853,12.9164,81.91,13,0,7.36,NE,1611843143
Kushikino,31.7167,130.2667,44.31,73,97,27.27,JP,1611843144
Husavik,66.0449,-17.3389,-0.4,85,0,8.05,IS,1611843144
Sitka,57.0531,-135.33,24.8,74,1,3.02,US,1611843144
Mosquera,4.7059,-74.2302,55.4,82,20,2.3,CO,1611843144
Sayyan,15.1718,44.3244,66.69,23,2,4.12,YE,1611843144
Andenes,69.3143,16.1194,25.0,63,0,18.41,NO,1611843144
Agadez,19.75,10.25,75.74,19,0,13.65,NE,1611843145
Lexington,37.9887,-84.4777,19.99,93,1,5.75,US,1611843123
Pemangkat,1.1667,108.9667,76.69,81,100,8.59,ID,1611843145
Bjørnevatn,69.6672,29.9847,14.0,73,0,12.66,NO,1611843145
Hard,47.4941,9.6806,48.2,81,75,9.22,AT,1611843145
Hamilton,39.1834,-84.5333,24.01,79,75,8.05,US,1611843145
Santa Fe,-31.6333,-60.7,89.01,50,13,4.0,AR,1611842990
Bengkulu,-3.8004,102.2655,76.59,91,100,15.41,ID,1611843146
Katsuura,35.1333,140.3,41.0,87,75,5.75,JP,1611843146
Derzhavīnsk,51.1,66.3167,18.45,92,0,6.76,KZ,1611843146
Aksu,41.1231,80.2644,22.26,81,0,2.28,CN,1611843146
Basco,20.4487,121.9702,71.96,79,94,25.84,PH,1611843147
Gayéri,12.6497,0.4931,96.55,8,0,11.45,BF,1611843147
Kyzyl-Suu,42.3414,78.0056,21.29,75,0,7.56,KG,1611843147
Olafsvik,64.8945,-23.7142,29.88,87,13,3.94,IS,1611843147
Zapolyarnyy,69.4154,30.8136,14.0,73,0,12.66,RU,1611843147
Aldan,58.6031,125.3894,-41.3,79,100,0.65,RU,1611843148
Coyhaique,-45.5752,-72.0662,51.8,54,75,8.05,CL,1611843148
Charlottetown,46.2352,-63.1267,26.01,93,90,4.61,CA,1611843148
Gbarnga,6.9956,-9.4722,97.72,27,1,3.18,LR,1611843148
Sulangan,11.1373,123.7228,80.06,79,69,26.6,PH,1611843148
Olinda,-8.0089,-34.8553,84.2,58,40,10.36,BR,1611843148
Manaure,11.7751,-72.4445,80.85,66,80,19.62,CO,1611843148
Alice Springs,-23.7,133.8833,87.8,51,90,11.03,AU,1611842883
Avera,33.194,-82.5271,41.0,65,1,12.66,US,1611843149
Lukovetskiy,64.2956,41.9211,12.2,79,90,11.18,RU,1611843149
Nuuk,64.1835,-51.7216,28.4,54,20,2.3,GL,1611843149
Turaif,31.6725,38.6637,59.0,51,40,11.5,SA,1611843149
Toamasina,-18.1667,49.3833,87.8,79,40,9.22,MG,1611843150
Forestville,38.8451,-76.875,30.2,50,1,23.02,US,1611843150
Guerrero Negro,27.9769,-114.0611,54.68,64,98,5.55,MX,1611843150
Coquimbo,-29.9533,-71.3436,60.8,88,90,11.5,CL,1611843006
Rio Brilhante,-21.8019,-54.5464,75.52,82,98,9.08,BR,1611843150
Monte Carmelo,-18.7247,-47.4986,77.18,59,100,9.26,BR,1611843036
Gornozavodsk,58.3758,58.3211,22.21,97,100,10.76,RU,1611843151
Tongliao,43.6125,122.2653,-11.81,83,0,9.53,CN,1611843151
Marawi,7.9986,124.2928,73.0,95,52,5.01,PH,1611843151
Jumla,29.2747,82.1838,32.76,65,0,5.84,NP,1611843151
Villa María,-32.4075,-63.2402,88.5,29,5,6.02,AR,1611843133
Cockburn Town,21.4612,-71.1419,78.8,65,40,5.75,TC,1611843152
Lagoa,39.05,-27.9833,60.69,87,45,18.88,PT,1611843152
Schleswig,54.5167,9.55,33.01,74,75,8.05,DE,1611843152
Sant Feliu de Guíxols,41.7833,3.0333,62.01,87,100,4.92,ES,1611843152
Moroni,-11.7022,43.2551,82.67,65,7,5.5,KM,1611843152
Bānki,20.3833,85.5333,75.2,60,0,3.44,IN,1611843153
Raton,36.9034,-104.4391,19.99,67,1,8.05,US,1611843153
Coos Bay,43.3665,-124.2179,41.0,99,100,4.99,US,1611843153
Mednogorsk,51.4128,57.595,12.13,94,26,7.65,RU,1611843081
Kargasok,59.0556,80.8572,-9.98,90,100,12.75,RU,1611843153
Isabela,6.7085,121.9711,77.94,83,90,3.89,PH,1611843154
Abengourou,6.7297,-3.4964,99.79,30,8,1.01,CI,1611843064
Barabai,-2.5833,115.3833,75.54,92,100,0.22,ID,1611843137
Mimongo,-1.6195,11.6068,80.56,79,85,3.22,GA,1611843154
Al Bardīyah,31.7561,25.0865,55.89,73,100,30.76,LY,1611843154
Wagar,16.1525,36.2032,97.05,13,66,12.97,SD,1611843155
Lhokseumawe,5.1801,97.1507,78.67,83,22,3.31,ID,1611843155
Őrbottyán,47.6871,19.2824,39.99,70,75,6.91,HU,1611843155
Karaman Province,37.0833,33.25,36.09,73,99,12.44,TR,1611843155
Nefteyugansk,61.0998,72.6035,-5.8,84,90,6.71,RU,1611842951
Jinchang,38.4953,102.1739,25.47,68,0,2.3,CN,1611843023
San Cristobal,7.7669,-72.225,78.8,73,40,4.61,VE,1611842955
Boguchar,49.9358,40.545,33.73,92,100,8.79,RU,1611843156
Magadan,59.5667,150.8,-17.03,79,0,9.24,RU,1611843156
Crateús,-5.1783,-40.6775,89.89,44,76,6.33,BR,1611843156
Launceston,-41.45,147.1667,50.0,76,32,5.75,AU,1611843106
Moerai,-22.4333,-151.3333,80.44,75,100,15.66,PF,1611843156
Sangar,63.9242,127.4739,-54.09,70,49,1.25,RU,1611843156
Santa Isabel Rio Negro,-0.4139,-65.0192,83.25,72,24,4.94,BR,1611843157
Kieta,-6.2167,155.6333,81.41,82,99,12.06,PG,1611843157
Bahía Blanca,-38.7196,-62.2724,76.06,23,8,8.39,AR,1611843157
Ukiah,39.1502,-123.2078,44.6,93,90,2.24,US,1611843157
Karratha,-20.7377,116.8463,87.51,48,0,11.86,AU,1611843157
Mushie,-3.0167,16.9,90.91,50,39,0.78,CD,1611843158
Shingū,33.7333,135.9833,47.12,76,6,8.66,JP,1611843158
Capreol,46.706,-80.9225,-4.0,71,20,4.61,CA,1611843158
Khandyga,62.6667,135.6,-53.77,72,87,0.2,RU,1611843158
Songea,-10.6833,35.65,76.39,82,81,3.98,TZ,1611843158
Alushta,44.6667,34.4167,39.15,73,73,20.67,UA,1611843069
Aksarayskiy,46.7924,48.0119,41.0,60,75,11.18,RU,1611843159
Conceição da Barra,-18.5933,-39.7322,87.6,50,31,7.23,BR,1611843159
Lamar,33.6668,-95.5836,27.0,93,1,5.75,US,1611843159
Lambaré,-25.3468,-57.6065,86.0,74,75,11.5,PY,1611843159
Carbonia,39.1672,8.5222,64.4,63,40,13.8,IT,1611843159
Palauig,15.435,119.9045,77.95,79,82,5.5,PH,1611843160
Parabel',58.6978,81.4825,-9.24,90,100,11.39,RU,1611843160
Auki,-8.7676,160.7034,78.85,84,100,8.66,SB,1611843160
Komló,46.1928,18.2649,39.2,60,0,8.05,HU,1611843160
Khargone,21.8167,75.6,72.59,31,0,5.1,IN,1611843160
Nantucket,41.2835,-70.0995,36.0,100,90,10.36,US,1611843160
Ghanzi,-21.5667,21.7833,86.9,41,78,11.59,BW,1611843160
Paamiut,61.994,-49.6678,33.64,82,82,2.95,GL,1611843161
Zharkent,44.1628,80.0,17.11,87,0,1.34,KZ,1611843161
Izvestkovyy,48.9833,131.55,-13.25,87,100,2.73,RU,1611843161
Chapais,49.7834,-74.8492,-0.4,78,90,11.5,CA,1611843162
Domoni,-12.2569,44.5319,84.45,60,70,2.19,KM,1611843162
Alofi,-19.0595,-169.9187,77.0,94,100,6.91,NU,1611843162
Pacific Grove,36.6177,-121.9166,52.0,93,75,20.38,US,1611843162
Nemuro,43.3236,145.575,26.98,91,100,16.51,JP,1611843162
Kisangani,0.5167,25.2,75.2,83,75,6.91,CD,1611843162
Balabac,7.9868,117.0645,80.73,82,29,11.3,PH,1611843163
San Patricio,28.017,-97.5169,46.4,66,1,6.91,US,1611843163
Ţahţā,26.7693,31.5021,68.0,37,0,14.97,EG,1611843163
Sarangani,5.4033,125.4636,81.84,73,70,9.66,PH,1611843163
Aitape,-3.1374,142.3475,78.76,83,100,4.27,PG,1611843163
Gunjur,13.2019,-16.7339,95.0,18,37,10.36,GM,1611843164
Skibbereen,51.55,-9.2667,51.8,93,75,21.85,IE,1611843164
Vanderhoof,54.0166,-124.0198,-10.07,88,57,0.16,CA,1611843164
Boralday,43.3578,76.8594,19.4,79,0,4.47,KZ,1611843164
Chilca,-12.5211,-76.7372,71.01,83,0,5.75,PE,1611843164
Lüderitz,-26.6481,15.1594,75.6,48,0,32.12,NA,1611843165
Price,39.5994,-110.8107,24.8,86,90,0.45,US,1611843015
Kampong Thom,12.7111,104.8887,81.43,56,77,6.31,KH,1611843165
Nome,64.5011,-165.4064,15.8,57,90,8.05,US,1611843165
Cuiluan,47.72,128.648,-12.5,88,100,3.38,CN,1611843165
Reshetikha,56.2189,43.2936,32.0,93,90,6.71,RU,1611843165
Bloemfontein,-29.1211,26.214,75.2,64,75,8.05,ZA,1611843166
Srednebelaya,50.6594,128.0106,-23.8,76,0,4.47,RU,1611843166
Weligama,5.9667,80.4167,78.21,81,100,5.39,LK,1611842953
Conde,-7.2597,-34.9075,87.8,58,75,12.66,BR,1611843141
Natá,8.3333,-80.5167,86.0,58,0,3.44,PA,1611843166
Kaliua,-5.0606,31.7936,82.81,56,49,3.8,TZ,1611843167
Kenitra,34.261,-6.5802,64.4,82,0,5.75,MA,1611843167
Margate,51.3813,1.3862,57.0,71,49,4.0,GB,1611843167
Ntoum,0.3833,9.7833,86.0,74,20,6.91,GA,1611843167
Xam Nua,20.4197,104.0439,57.25,91,72,3.02,LA,1611843168
Bariloche,-41.1456,-71.3082,60.01,58,75,12.66,AR,1611843104
Örnsköldsvik,63.2909,18.7153,15.8,100,90,5.75,SE,1611843168
Sistranda,63.7256,8.834,28.4,74,40,21.85,NO,1611843168
Kirakira,-10.4544,161.9205,81.32,82,100,14.0,SB,1611843168
Wajima,37.4,136.9,44.6,89,68,35.5,JP,1611843169
George,-33.963,22.4617,73.4,49,0,10.36,ZA,1611843169
Tacuarembó,-31.7333,-55.9833,82.08,51,61,5.68,UY,1611843169
Mēga,4.05,38.3,80.35,24,92,14.61,ET,1611843169
Atambua,-9.1061,124.8925,74.57,90,100,4.25,ID,1611843169
Jizan,17.3333,42.6667,82.4,65,20,17.27,SA,1611843002
Chaska,44.7894,-93.6022,9.0,61,75,6.91,US,1611842895
Lima,-12.0432,-77.0282,71.01,83,0,5.75,PE,1611842644
Alta Floresta,-9.8756,-56.0861,77.0,94,75,4.61,BR,1611843170
Taksimo,56.3444,114.8794,-33.12,76,48,1.32,RU,1611843170
Brigham City,41.5102,-112.0155,39.2,56,90,6.44,US,1611843170
Batagay-Alyta,67.8006,130.4114,-37.93,81,94,2.51,RU,1611843171
Northam,51.0333,-4.2167,52.0,96,100,11.01,GB,1611843171
Esik,43.3552,77.4525,19.4,79,1,4.47,KZ,1611843171
Nemyriv,48.9708,28.8378,30.0,86,90,17.9,UA,1611843171
Abdulino,53.7,53.6667,16.12,95,100,12.26,RU,1611843171
Anderson,34.5334,-82.6499,41.0,56,1,9.22,US,1611842883
Sittwe,20.15,92.9,69.53,74,0,10.56,MM,1611843172
Taoudenni,22.6783,-3.9836,84.13,15,0,15.21,ML,1611843172
Mahur,25.1667,93.1167,55.35,71,0,1.48,IN,1611843172
Koumac,-20.5667,164.2833,78.67,81,66,3.13,NC,1611843172
Mount Isa,-20.7333,139.5,82.4,57,27,7.43,AU,1611843172
Laguna,38.421,-121.4238,48.99,93,90,13.8,US,1611843172
Iwanai,42.9744,140.5089,23.76,92,100,9.8,JP,1611843173
Namatanai,-3.6667,152.4333,80.53,81,100,5.7,PG,1611843173
Camiri,-20.05,-63.5167,87.66,41,69,4.72,BO,1611843173
Andros Town,24.7,-77.7667,75.2,88,40,8.05,BS,1611843013
Poplar Bluff,36.757,-90.3929,28.4,69,90,8.05,US,1611843018
Anito,12.4497,125.2886,76.42,83,100,12.5,PH,1611843173
Mitsamiouli,-11.3847,43.2844,84.24,61,1,5.44,KM,1611843173
Vung Tau,10.346,107.0843,76.86,76,100,22.48,VN,1611843174
Seydi,39.4816,62.9137,46.69,50,0,10.36,TM,1611843174
Laas,46.6166,10.7002,39.2,100,90,5.75,IT,1611843174
Constitución,-35.3333,-72.4167,65.59,55,100,6.8,CL,1611843174
Vao,-22.6667,167.4833,77.04,85,81,23.51,NC,1611843174
Wala,4.578,12.3154,90.81,35,100,4.0,CM,1611843175
Talnakh,69.4865,88.3972,-31.9,76,0,7.29,RU,1611843175
Watertown,42.3709,-71.1828,30.99,93,90,6.91,US,1611843057
Badnāwar,23.0167,75.2167,62.6,51,0,3.44,IN,1611843175
San Jorge,-31.8962,-61.8598,93.76,26,0,8.88,AR,1611843175
Nouadhibou,20.931,-17.0347,80.6,29,0,8.05,MR,1611843176
Grand Gaube,-20.0064,57.6608,82.0,71,26,5.01,MU,1611843176
Monterrey,25.6667,-100.3167,51.01,53,20,6.91,MX,1611842945
Trairi,-3.2778,-39.2689,88.25,55,100,12.44,BR,1611843176
Rio Grande,-32.035,-52.0986,82.4,54,75,6.91,BR,1611843176
Saint-Augustin,51.226,-58.6502,14.49,92,14,10.6,CA,1611843176
Zyryanka,65.75,150.85,-24.77,85,100,9.42,RU,1611843176
Demba,-5.51,22.2667,86.41,50,100,1.79,CD,1611843177
Mandalgovi,45.7625,106.2708,8.6,88,0,9.91,MN,1611843177
St. Pete Beach,27.7253,-82.7412,59.0,72,1,14.97,US,1611843177
Manavālakurichi,8.1333,77.3,84.2,51,20,3.4,IN,1611843177
Salinópolis,-0.6136,-47.3561,84.43,67,100,6.29,BR,1611843177
Pauini,-7.7136,-66.9764,77.59,91,100,1.21,BR,1611843177
Doha,25.2867,51.5333,75.2,68,0,6.91,QA,1611843178
San Jose,37.3394,-121.895,50.0,87,90,10.36,US,1611843043
Tautira,-17.7333,-149.15,77.0,73,40,5.75,PF,1611843178
Les Herbiers,46.8667,-1.0167,55.0,100,90,14.97,FR,1611843178
Les Cayes,18.2,-73.75,77.86,67,0,2.82,HT,1611843178
Birjand,32.8663,59.2211,55.4,8,0,11.5,IR,1611843178
Alghero,40.5589,8.3181,62.6,77,0,6.91,IT,1611843179
Corralillo,22.9819,-80.5856,76.35,70,0,7.56,CU,1611843179
Blythe,33.6103,-114.5964,44.6,76,1,5.26,US,1611843179
Riohacha,11.5444,-72.9072,79.32,73,86,15.41,CO,1611843044
Sémbé,1.6481,14.5806,92.05,39,45,2.01,CG,1611843179
Río Gallegos,-51.6226,-69.2181,50.0,62,75,26.46,AR,1611843180
Beroroha,-21.6667,45.1667,91.26,51,96,5.61,MG,1611843180
Kresna,41.7333,23.15,37.0,60,32,8.16,BG,1611843180
Puerto Carreño,6.189,-67.4859,83.19,55,100,15.75,CO,1611843180
Noumea,-22.2763,166.4572,81.0,88,0,4.61,NC,1611843180
Casablanca,33.5928,-7.6192,69.8,77,0,9.22,MA,1611842986
The Valley,18.217,-63.0578,80.6,57,20,13.8,AI,1611843180
Mezen',65.8522,44.24,-7.53,89,22,7.07,RU,1611843181
Ongandjera,-17.8833,15.0667,86.31,39,74,5.35,NA,1611843181
Roald,62.5833,6.1333,33.8,69,20,17.27,NO,1611843181
Marquard,-28.6645,27.4305,69.8,64,71,16.24,ZA,1611843181
Chesma,53.8111,60.6533,14.5,94,20,11.25,RU,1611843181
Port Hardy,50.6996,-127.4199,41.0,100,75,3.44,CA,1611843181
Nyagan,62.1406,65.3936,6.28,95,100,4.7,RU,1611843182
Nortelândia,-14.4547,-56.8028,78.8,73,90,3.65,BR,1611843182
Morón,-34.6534,-58.6198,69.8,88,75,8.05,AR,1611842978
Wheeling,42.1392,-87.929,10.99,72,1,6.91,US,1611843023
Benjamín Aceval,-24.9667,-57.5667,86.0,74,75,11.5,PY,1611843182
Progreso,21.2833,-89.6667,75.2,94,90,3.18,MX,1611843183
Pozoblanco,38.3791,-4.8483,64.4,77,0,8.05,ES,1611843183
Moindou,-21.6924,165.677,75.2,88,0,4.61,NC,1611843183
Okha,53.5739,142.9478,3.31,94,100,5.44,RU,1611843183
Adrar,20.5022,-10.0711,82.0,16,0,15.48,MR,1611843183
Port Blair,11.6667,92.75,80.11,81,0,9.98,IN,1611843184
Kenai,60.5544,-151.2583,21.0,86,90,16.11,US,1611843184
Pangoa,-12.1167,-73.0,73.0,88,96,1.07,PE,1611843184
Shatrovo,56.5167,64.6333,23.07,95,100,14.99,RU,1611843184
Palmer,42.1584,-72.3287,28.99,74,90,9.22,US,1611843185
Kindia,10.0569,-12.8658,94.24,14,1,7.09,GN,1611843185
Leshukonskoye,64.8989,45.7622,-0.87,92,90,6.87,RU,1611843185
Chumikan,54.7183,135.315,-11.34,87,100,10.18,RU,1611843185
Zhigansk,66.7697,123.3711,-52.24,76,74,4.9,RU,1611843185
Kumul,42.8,93.45,21.99,81,0,3.6,CN,1611843185
Faya,18.3851,42.4509,73.4,42,20,6.91,SA,1611843186
Norrtälje,59.758,18.705,32.0,100,90,9.22,SE,1611843186
San Miguel,13.4833,-88.1833,82.4,83,0,2.3,SV,1611843186
Port Macquarie,-31.4333,152.9167,71.6,94,75,5.75,AU,1611843187
Xucheng,20.35,110.1288,64.4,94,4,6.71,CN,1611843187
Qinggang,46.6833,126.0833,-20.15,85,0,6.35,CN,1611843187
Ascension,30.2169,-90.9001,41.0,75,1,9.22,US,1611843187
Murshidābād,24.1833,88.2667,62.56,31,0,4.79,IN,1611843187
Vostok,46.4856,135.8833,-3.91,91,100,3.76,RU,1611843188
Biak,-0.9131,122.8766,78.69,74,41,7.31,ID,1611843188
Hulan Ergi,47.2042,123.6333,-11.88,79,0,8.59,CN,1611843188
Srednekolymsk,67.45,153.6833,-18.87,88,100,6.55,RU,1611843188
Polokwane,-23.9045,29.4688,71.6,83,40,4.61,ZA,1611843188
